[
    {
      "name": "Michelangelo Pizzeria Restaurant",
      "type": "Italian",
      "website": "michelangelo-augsburg.de",
      "street": "Donauwörther Str. 47",
      "postal_code": 86154,
      "city": "Augsburg",
      "phone": "0821 415637",
      "coordinates": [48.384736450650976, 10.880320714972113]
  },

  {
    "name": "Mom's Table",
    "type": "Vegan",
    "website": "momstable.com",
    "street": "Maximilianstraße 77",
    "postal_code": 86150,
    "city": "Augsburg",
    "phone": "0821 50829677",
    "coordinates": [48.36418415525376, 10.90012876783054]
  },

  {
    "name": "Piatto d'Oro Ristorante Hotel",
    "type": "Italian",
    "website": "ristorantepiattodoro.de",
    "street": "Ingolstädter Str. 42",
    "postal_code": 86529,
    "city": "Schrobenhausen",
    "phone": "08252 8107090",
    "coordinates": [48.569127770451914, 11.282158183282364]
  },

  {
    "name": "König von Flandern",
    "type": "German",
    "website": "koenigvonflandern.de",
    "street": "Karolinenstraße 12",
    "postal_code": 86150,
    "city": "Augsburg",
    "phone": "0821 158050",
    "coordinates": [48.36995764907325, 10.89824679851677]
  },

  {
    "name": "Cafe Himmelgrün",
    "type": "Cafe",
    "website": "cafe-himmelgrün.de",
    "street": "Am Alten Schlachthof 9",
    "postal_code": 86153,
    "city": "Augsburg",
    "phone": "0821 45593766",
    "coordinates": [48.37188705123634, 10.920598383176278]
  },

  {
    "name": "Mühle Dreizehn",
    "type": "Vegan",
    "website": "muehle-dreizehn.de",
    "street": "Barfüßerstraße 4",
    "postal_code": 86150,
    "city": "Augsburg",
    "phone": "0821 99950011",
    "coordinates": [48.36939674049045, 10.899836196668728]
  },

  {
    "name": "Wirtshaus Zum Schober",
    "type": "German",
    "website": "zum-schober.de",
    "street": "Stätzlinger Str. 12",
    "postal_code": 86165,
    "city": "Augsburg",
    "phone": "0173 9147250",
    "coordinates": [48.379098259321246, 10.924317783180113]
  },

  {
    "name": "Joe Penas",
    "type": "Mexican",
    "website": "joe-penas-augsburg.com",
    "street": "Müllerstraße 19",
    "postal_code": 86153,
    "city": "Augsburg",
    "phone": "0821 39036",
    "coordinates": [48.37802116301953, 10.900482983179534]
  },

  {
    "name": "Il Porcino Ristorante",
    "type": "Italian",
    "website": "ristorante-il-porcino.de",
    "street": "Salomon-Idler-Straße 24B",
    "postal_code": 86159,
    "city": "Augsburg",
    "phone": "0821 592863",
    "coordinates": [48.333519638050205, 10.900615467814074]
  },

  {
    "name": "Pizzeria Trattoria Crudo",
    "type": "Italian",
    "website": "crudo-augsburg.de",
    "street": "Am Pfannenstiel 20",
    "postal_code": 86153,
    "city": "Augsburg",
    "phone": "0821 34741623",
    "coordinates": [48.37890116351348, 10.891992883180022]
  },

  {
    "name": "Lokalhelden",
    "type": "Vegetarian",
    "website": "lokalhelden-augsburg.de",
    "street": "Bismarckstraße 10",
    "postal_code": 86159,
    "city": "Augsburg",
    "phone": "082165058944",
    "coordinates": [48.357908035566155, 10.897141267827163]
  },

  {
    "name": "Palmtreeclub",
    "type": "Cafe",
    "website": "http://palmtreeclub.de/",
    "street": "Augustenstraße 43",
    "postal_code": 80333,
    "city": "Munich",
    "phone": "+498932968978",
    "coordinates": [48.148440601174094, 11.562293083056483]
  },

  {
    "name": "Hammermühle GmbH",
    "type": "Bakery",
    "website": "https://www.hammermuehle-shop.de/rezepte-und-blog/rezepte/nachspeisen/",
    "street": "Hauptstraße 181",
    "postal_code": 67489,
    "city": "Kirrweiler (Pfalz)",
    "phone": "+49632195890",
    "coordinates": [49.303883703773344, 8.149522883680984]
  },
  
  {
    "name": "Tante Frieda Urban Kitchen & Grand Cafe",
    "type": "Cafe",
    "website": "http://www.tante-frieda.de/",
    "street": "Altstadt 297",
    "postal_code": 84028,
    "city": "Landshut",
    "phone": "+4987126261",
    "coordinates": [48.535503759842136, 12.151456525593469]
  },

  {
    "name": "Herzdame",
    "type": "Cafe",
    "website": "http://www.herdame-guenzburg.de",
    "street": "Kapuzinergasse 5",
    "postal_code": 89312,
    "city": "Günzburg",
    "phone": "+4982219668969",
    "coordinates": [48.45476393708262, 10.277465567879192]
  },

  {
    "name": "Silke Görg Glutenfrei",
    "type": "Bakery",
    "website": "http://www.silkegoerg.de",
    "street": "Ellersdorf 3",
    "postal_code": 96158,
    "city": "Frensdorf",
    "phone": "+4995465954113",
    "coordinates": [49.78517637027111, 10.877606726274054]
  },

  {
    "name": "Condensa",
    "type": "Mexican",
    "website": "http://www.condesa-gourmet-tacos.de/",
    "street": "Oberländerstraße 1",
    "postal_code": 81371,
    "city": "Munich",
    "phone": "+498974746150",
    "coordinates": [48.11941438642064, 11.551232496534748]
  },

  {
    "name": "Emmi's Kitchen",
    "type": "Vegan",
    "website": "http://www.quandoo.de/",
    "street": "Buttermelcherstraße 11-15",
    "postal_code": 80469,
    "city": "Munich",
    "phone": "+498955261878",
    "coordinates": [48.132491986013, 11.578523925377135]
  },

  {
    "name": "Emmi's Kitchen",
    "type": "Vegan",
    "website": "http://www.quandoo.de/",
    "street": "Buttermelcherstraße 11-15",
    "postal_code": 80469,
    "city": "Munich",
    "phone": "+498955261878",
    "coordinates": [48.132491986013, 11.578523925377135]
  },

  {
    "name": "Torten-Sternchen",
    "type": "Cafe",
    "website": "http://www.torten-sternchen.de/",
    "street": "Freibadstraße 18",
    "postal_code": 81543,
    "city": "Munich",
    "phone": "+4915730855717",
    "coordinates": [48.1189708863892, 11.573301825369919]
  },

  {
    "name": "Osteria zur goldenen Traube",
    "type": "Italian",
    "website": "https://osteriagoldenetraube.de/index.php/speisekarte/",
    "street": "Königstraße 46",
    "postal_code": 89407,
    "city": "Dillingen an der Donau",
    "phone": "+499071726060",
    "coordinates": [48.576793920675065, 10.492587496780295]
  },

  {
    "name": "Oh happy Café",
    "type": "Cafe",
    "website": "https://www.ohhappycafe.de/",
    "street": "Waldfriedhofstraße 46",
    "postal_code": 81377,
    "city": "Munich",
    "phone": "+498995867602",
    "coordinates": [48.11311461464902, 11.510502698379149]
  },

  {
    "name": "Limoncello",
    "type": "Italian",
    "website": "http://limoncello-ristorante.de/wp-content/uploads/speisekarte.pdf",
    "street": "Verdistraße 92",
    "postal_code": 81247,
    "city": "Munich",
    "phone": "+498954320765",
    "coordinates": [48.16494111960962, 11.468366667723755]
  },

  {
    "name": "Locanda Busento Pizzeria",
    "type": "Italian",
    "website": "http://www.locanda-busento.de/",
    "street": "Fürstenrieder Str. 277",
    "postal_code": 81377,
    "city": "Munich",
    "phone": "+498978576070",
    "coordinates": [48.109148412432475, 11.502650698377035]
  },

  {
    "name": "White Rabbit's Room",
    "type": "Cafe",
    "website": "http://www.white-rabbits-room.de/",
    "street": "Franziskanerstraße 19",
    "postal_code": 81669,
    "city": "Munich",
    "phone": "+498967971193",
    "coordinates": [48.126837277044686, 11.593087983044942]
  },

  {
    "name": "Tanpopo",
    "type": "Bakery",
    "website": "http://www.tanpopo-cafe.de/",
    "street": "Maillingerstraße 6",
    "postal_code": 80636,
    "city": "Munich",
    "phone": "+498952055757",
    "coordinates": [48.14914500196096, 11.545858183056865]
  },

  {
    "name": "Café Ignaz",
    "type": "Cafe",
    "website": "http://www.ignaz-cafe.de/",
    "street": "Georgenstraße 67",
    "postal_code": 80799,
    "city": "Munich",
    "phone": "+49892716093",
    "coordinates": [48.15622110986639, 11.571030783060648]
  },

  {
    "name": "Lost Weekend",
    "type": "Cafe",
    "website": "http://www.lostweekend.de/",
    "street": "Schellingstraße 3",
    "postal_code": 80779,
    "city": "Munich",
    "phone": "+498928701881",
    "coordinates": [48.14905300185816, 11.579714383056835]
  },

  {
    "name": "Daddy Longlegs",
    "type": "Cafe",
    "website": "http://www.daddy-longlegs.de/#speisekarte",
    "street": "Barer Str. 42",
    "postal_code": 80799,
    "city": "Munich",
    "phone": "+498980994361",
    "coordinates": [48.1490909019005, 11.572315983056825]
  },

  {
    "name": "Hungriges Herz",
    "type": "Cafe",
    "website": "https://www.hungrigesherz.com/wp-content/uploads/2021/02/Lieferkarte.pdf",
    "street": "Fraunhoferstraße 42",
    "postal_code": 80469,
    "city": "Munich",
    "phone": "+498920201515",
    "coordinates": [48.128154916186034, 11.575622832121743]
  },

  {
    "name": "Café Stockholm",
    "type": "Swedish",
    "website": "",
    "street": "Lämmerstraße 6",
    "postal_code": 80335,
    "city": "Munich",
    "phone": "+4915143351211",
    "coordinates": [48.14220949824383, 11.558853167711554]
  },

  {
    "name": "Café Fräulein",
    "type": "Cafe",
    "website": "https://www.cafe-fraeulein.de/",
    "street": "Frauenstraße 11",
    "postal_code": 80469,
    "city": "Munich",
    "phone": "+498920320710",
    "coordinates": [48.134542487494535, 11.578252425378231]
  },

  {
    "name": "Tushita Teehaus",
    "type": "Cafe",
    "website": "http://www.tushita.eu/tee.html",
    "street": "Klenzestraße 53",
    "postal_code": 80469,
    "city": "Munich",
    "phone": "+498918975594",
    "coordinates": [48.129676465294615, 11.573198325375646]
  },

  {
    "name": "Wagners - Juicery & Health Food",
    "type": "Cafe",
    "website": "http://www.wagnersjuicery.com/",
    "street": "Fraunhoferstraße 43",
    "postal_code": 80469,
    "city": "Munich",
    "phone": "",
    "coordinates": [48.12814719675517, 11.576341132121728]
  },

  {
    "name": "Pizzesco",
    "type": "Italian",
    "website": "http://www.pizzesco.com/menue/",
    "street": "Rosenheimer Str. 12",
    "postal_code": 81669,
    "city": "Munich",
    "phone": "+498967972812",
    "coordinates": [48.13136421674946, 11.589524032123451]
  },

  {
    "name": "Café Zimt",
    "type": "Cafe",
    "website": "https://cafezimt.wordpress.com/speisekarte/",
    "street": "Ehrengutstraße 9",
    "postal_code": 80469,
    "city": "Munich",
    "phone": "+498945229588",
    "coordinates": [48.12134887708034, 11.559968467700394]
  },

  {
    "name": "Café Omo",
    "type": "Ethiopian",
    "website": "https://www.cafe-omo.de/speisekarte/",
    "street": "Zenettistraße 25",
    "postal_code": 80337,
    "city": "Munich",
    "phone": "+498917929283",
    "coordinates": [48.12481174122033, 11.555062998068673]
  },

  {
    "name": "Gasthof Obermaier",
    "type": "German",
    "website": "http://gasthof-obermaier.de/",
    "street": "Truderinger Str. 306",
    "postal_code": 81825,
    "city": "Munich",
    "phone": "+4989424943",
    "coordinates": [48.12161059606331, 11.670194203282838]
  },

  {
    "name": "Portofino Ristorante",
    "type": "Italian",
    "website": "https://www.pizzariaportofinomuenchen-muenchen.de/",
    "street": "Scharfreiterpl. 8",
    "postal_code": 81549,
    "city": "Munich",
    "phone": "+498992772493",
    "coordinates": [48.105210594327914, 11.59322723210948]
  },

  {
    "name": "Ristorante VI VADI Cucina Italiana",
    "type": "Italian",
    "website": "https://www.vivadi.de/vi-vadi",
    "street": "Marsstraße 6",
    "postal_code": 80335,
    "city": "Munich",
    "phone": "+498954506767",
    "coordinates": [48.1431476188186, 11.55896709654747]
  },

  {
    "name": "Casa Del Gelato",
    "type": "Ice Cream",
    "website": "",
    "street": "Münchner Str. 3",
    "postal_code": 85635,
    "city": "Höhenkirchen-Siegertsbrunn",
    "phone": "+4981028740284",
    "coordinates": [48.01922788523843, 11.710936932063545]
  },

  {
    "name": "Eisdiele Riviera",
    "type": "Ice Cream",
    "website": "",
    "street": "Tegernseer Landstraße 91",
    "postal_code": 81539,
    "city": "Munich",
    "phone": "+49896923823",
    "coordinates": [48.114071113713656, 11.578752932114206]
  },

  {
    "name": "Der verrückte Eismacher",
    "type": "Ice Cream",
    "website": "https://www.dvem.de/",
    "street": "Fraunhoferstraße 42",
    "postal_code": 80469,
    "city": "Munich",
    "phone": "+498955890266",
    "coordinates": [48.12811241617853, 11.575709632121692]
  },

  {
    "name": "Eiscafé Eismeer",
    "type": "Ice Cream",
    "website": "http://www.daseismeer.de/files/Eismeer-Speisekarte2015-1.pdf",
    "street": "Pestalozzistraße 21",
    "postal_code": 80469,
    "city": "Munich",
    "phone": "+498937960797",
    "coordinates": [48.13045371658962, 11.56753869654066]
  },

  {
    "name": "Schuhbecks Eissalon",
    "type": "Ice Cream",
    "website": "https://www.schuhbeck.de/gastronomie/schuhbecks-pasta-pizza/",
    "street": "Pfisterstraße 11",
    "postal_code": 80331,
    "city": "Munich",
    "phone": "+49892166900",
    "coordinates": [48.1382121028534, 11.580065949918266]
  },

  {
    "name": "Ballabeni Icecream Werkstatt",
    "type": "Ice Cream",
    "website": "http://www.ballabeni.com/",
    "street": "Seidlstraße 28",
    "postal_code": 80335,
    "city": "Munich",
    "phone": "+498990544186",
    "coordinates": [48.14555079343687, 11.558338632131035]
  },

  {
    "name": "Eiskonditorei Sarcletti GmbH & Co.KG",
    "type": "Ice Cream",
    "website": "http://www.sarcletti.de/41-0-Eissorten-Index.html",
    "street": "Nymphenburger Str. 155",
    "postal_code": 80634,
    "city": "Munich",
    "phone": "+4989155314",
    "coordinates": [48.15237779932051, 11.534328296552395]
  },

  {
    "name": "Ballabeni Icecream Stammhaus",
    "type": "Ice Cream",
    "website": "http://www.ballabeni.com/",
    "street": "Theresienstraße 46",
    "postal_code": 80333,
    "city": "Munich",
    "phone": "+498918912943",
    "coordinates": [48.14850443066771, 11.574592649923776]
  },

  {
    "name": "Der verrückte Eismacher - im Wunderland",
    "type": "Ice Cream",
    "website": "https://www.dvem.de/",
    "street": "Amalienstraße 77",
    "postal_code": 80799,
    "city": "Munich",
    "phone": "+498955890266",
    "coordinates": [48.15090829916489, 11.578687696551597]
  },

  {
    "name": "Bottega del gelato",
    "type": "Ice Cream",
    "website": "https://bottegadelgelato.business.site/",
    "street": "Hohenzollernpl. 4",
    "postal_code": 80796,
    "city": "Munich",
    "phone": "",
    "coordinates": [48.162006316683275, 11.568218949930985]
  },

  {
    "name": "Dinzler Kaffeerösterei AG",
    "type": "Cafe",
    "website": "https://www.dinzler.de/gastronomie/dinzler-am-irschenberg",
    "street": "Wendling 15",
    "postal_code": 83737,
    "city": "Irschenberg",
    "phone": "+498025992250",
    "coordinates": [47.82840056263616, 11.902294767544195]
  },

  {
    "name": "Fritz Mühlenbäckerei GmbH",
    "type": "Bakery",
    "website": "http://www.fritz-muehlenbaeckerei.de/",
    "street": "Münchener Str. 28",
    "postal_code": 85653,
    "city": "Aying",
    "phone": "+498095873070",
    "coordinates": [47.97277278033381, 11.773527832038775]
  },

  {
    "name": "Hachinger BIO G'wölb",
    "type": "Cafe",
    "website": "http://www.bio-gwoelb.de/",
    "street": "Hahilingastraße 1",
    "postal_code": 82041,
    "city": "Oberhaching",
    "phone": "+498966655715",
    "coordinates": [48.02638817673949, 11.595833232067378]
  },

  {
    "name": "Shotgun Sister Coffeebar",
    "type": "Cafe",
    "website": "https://shotgunsister.com/speisekarte/",
    "street": "Deisenhofener Str. 40",
    "postal_code": 81539,
    "city": "Munich",
    "phone": "+498926010730",
    "coordinates": [48.113314329089505, 11.585101608800555]
  },


  {
    "name": "Galerie-Café Käthe",
    "type": "Cafe",
    "website": "http://cafekaethe.blogspot.de/",
    "street": "Gebsattelstraße 34",
    "postal_code": 81541,
    "city": "Munich",
    "phone": "+498912010985",
    "coordinates": [48.12391101065733, 11.58984576770177]
  },

  {
    "name": "Cafe Glockenspiel GmbH",
    "type": "Cafe",
    "website": "http://www.cafe-glockenspiel.de/wp-content/uploads/fruehstueckskarte.pdf",
    "street": "Marienplatz 28",
    "postal_code": 80331,
    "city": "Munich",
    "phone": "+4989264256",
    "coordinates": [48.137000252587974, 11.57481873212645]
  },

  {
    "name": "Cafino",
    "type": "Cafe",
    "website": "",
    "street": "Truderinger Str. 277",
    "postal_code": 81825,
    "city": "Munich",
    "phone": "+498921567575",
    "coordinates": [48.12371430106605, 11.667454314328216]
  },

  {
    "name": "echt jetzt - Glutenfreie Bäckerei",
    "type": "Bakery",
    "website": "https://www.echtjetzt-echtjetzt.de/collections/brot-semmeln",
    "street": "Barer Str. 48",
    "postal_code": 80799,
    "city": "Munich",
    "phone": "+498962423166",
    "coordinates": [48.14963980426259, 11.57260758550668]
  },

  {
    "name": "Cafe Zeitgeist",
    "type": "Cafe",
    "website": "https://089zeitgeist.de/",
    "street": "Türkenstraße 74",
    "postal_code": 80799,
    "city": "Munich",
    "phone": "+498928659873",
    "coordinates": [48.15113619393093, 11.57669064992515]
  },

  {
    "name": "Gartensalon",
    "type": "Cafe",
    "website": "http://www.gartensalon.net/",
    "street": "Türkenstraße 90/Amalienpassage",
    "postal_code": 80799,
    "city": "Munich",
    "phone": "+498928778604",
    "coordinates": [48.1518819834547, 11.577182967716727]
  },

  {
    "name": "Cafe Reitschule",
    "type": "Cafe",
    "website": "http://www.cafe-reitschule.de/restaurant/karten/",
    "street": "Königinstraße 34",
    "postal_code": 80802,
    "city": "Munich",
    "phone": "+49893888760",
    "coordinates": [48.155537430983266, 11.589013991031957]
  },

  {
    "name": "Cotidiano Schwabing",
    "type": "Cafe",
    "website": "https://www.cotidiano.de/speisekarte-to-go",
    "street": "Hohenzollernstraße 11",
    "postal_code": 80801,
    "city": "Munich",
    "phone": "+498933035707",
    "coordinates": [48.159549005484834, 11.58334138551199]
  },

  {
    "name": "Cupcake 4 You",
    "type": "Bakery",
    "website": "https://www.cupcake4you.de/",
    "street": "Rathausplatz 1",
    "postal_code": 85716,
    "city": "Unterschleißheim",
    "phone": "+498933035707",
    "coordinates": [48.27290940471589, 11.570308396616936]
  },

  {
    "name": "Konditorei Schenkel",
    "type": "Bakery",
    "website": "http://glutenfreie-leckereien.de/",
    "street": "Martinstraße 29",
    "postal_code": 86551,
    "city": "Aichach",
    "phone": "+4982518870515",
    "coordinates": [48.45692267865325, 11.129851232298059]
  },

  {
    "name": "Cafe Agil",
    "type": "Cafe",
    "website": "https://www.cafe-agil.de/mittagskarte/",
    "street": "Löwenstraße 6",
    "postal_code": 85276,
    "city": "Pfaffenhofen an der Ilm",
    "phone": "+4984412782512",
    "coordinates": [48.530735671688795, 11.508621667920085]
  }

]
